id,name,slug,lat,lon,count
236304244,"Garneau, Strathcona, Edmonton",garneau-strathcona-edmonton,53.5196428,-113.5142523,2
236315159,"Clareview, Edmonton",clareview-edmonton,53.606899,-113.3880721,1
236469316,"Bonnie Doon, Edmonton",bonnie-doon-edmonton,53.525336550000006,-113.4670455898752,3
236532285,"Capilano, Greater Hardisty, Edmonton, Alberta, T6A 1P5, Canada",capilano-greater-hardisty-edmonton-alberta-t6a-1p5-canada,53.55446,-113.4238424,1
236567676,"Millbourne, Mill Woods, Edmonton",millbourne-mill-woods-edmonton,53.4747562,-113.4516548,1
